{"data":[{"id":"253221288107918","from":{"name":"Jessy TheHairstylist","id":"100002601471633"},"message":"Come get beautified at Anthony G Salon. With any purchase of your favorite Paul Mitchell product receive a complimentary blow dry","place":{"id":"172526692781450","name":"Anthony G's Salon","location":{"street":"11865 S.W. 26 Street","city":"Miami","state":"FL","country":"United States","zip":"33175","latitude":25.74700230336,"longitude":-80.389081623788}},"application":{"name":"Facebook for iPhone","namespace":"fbiphone","id":"6628568379"},"created_time":"2012-04-11T14:49:56+0000"},{"id":"250788258351221","from":{"name":"Jessy TheHairstylist","id":"100002601471633"},"message":"Come get Easter ready with us at Anthony g salon.","place":{"id":"172526692781450","name":"Anthony G's Salon","location":{"street":"11865 S.W. 26 Street","city":"Miami","state":"FL","country":"United States","zip":"33175","latitude":25.74700230336,"longitude":-80.389081623788}},"application":{"name":"Facebook for iPhone","namespace":"fbiphone","id":"6628568379"},"created_time":"2012-04-07T14:15:04+0000"},{"id":"249643528465694","from":{"name":"Jessy TheHairstylist","id":"100002601471633"},"message":"Easter special- come in for any hair service and receive a complimentary cut & style!! Happy Easter","place":{"id":"172526692781450","name":"Anthony G's Salon","location":{"street":"11865 S.W. 26 Street","city":"Miami","state":"FL","country":"United States","zip":"33175","latitude":25.74700230336,"longitude":-80.389081623788}},"application":{"name":"Facebook for iPhone","namespace":"fbiphone","id":"6628568379"},"created_time":"2012-04-05T14:58:20+0000","tags":{"data":[{"id":"100003224885562","name":"Sarah Isada"},{"id":"100002767684450","name":"Yuliet Martinez"},{"id":"100002606151531","name":"Anthonygsalon Paul Mitchell"},{"id":"1464013001","name":"Anthony Gonzalez"},{"id":"1384031451","name":"Nery Armenteros"},{"id":"560152760","name":"Alessandra Ana Martinez"}],"paging":{"next":"https:\/\/graph.facebook.com\/249643528465694\/tags?access_token=AAACEdEose0cBAMYosNuQgnCMBhgO4meNR3qH1cjXNhenSu6GRD6HiTa20OCYdbn297Lf2pZALjodgovOYrfZB0K5KvL0ONYoSHKuOldxmnwN01tZBh8&limit=25&offset=25&__after_id=560152760"}}},{"id":"236941546402559","from":{"name":"Jessy TheHairstylist","id":"100002601471633"},"message":"Come in and get your hair done","place":{"id":"172526692781450","name":"Anthony G's Salon","location":{"street":"11865 S.W. 26 Street","city":"Miami","state":"FL","country":"United States","zip":"33175","latitude":25.74700230336,"longitude":-80.389081623788}},"application":{"name":"Facebook for iPhone","namespace":"fbiphone","id":"6628568379"},"created_time":"2012-03-15T15:24:18+0000"},{"id":"236724306424283","from":{"name":"Jessy TheHairstylist","id":"100002601471633"},"place":{"id":"109602635781047","name":"Doral Ale House","location":{"street":"","city":"Doral","state":"FL","country":"United States","zip":"","latitude":25.804002854466,"longitude":-80.336955722957}},"application":{"name":"Facebook for iPhone","namespace":"fbiphone","id":"6628568379"},"created_time":"2012-03-15T04:18:28+0000"}],"paging":{"previous":"https:\/\/graph.facebook.com\/100002601471633\/checkins?access_token=AAACEdEose0cBAMYosNuQgnCMBhgO4meNR3qH1cjXNhenSu6GRD6HiTa20OCYdbn297Lf2pZALjodgovOYrfZB0K5KvL0ONYoSHKuOldxmnwN01tZBh8&limit=25&since=1334155796&__paging_token=253221288107918&__previous=1","next":"https:\/\/graph.facebook.com\/100002601471633\/checkins?access_token=AAACEdEose0cBAMYosNuQgnCMBhgO4meNR3qH1cjXNhenSu6GRD6HiTa20OCYdbn297Lf2pZALjodgovOYrfZB0K5KvL0ONYoSHKuOldxmnwN01tZBh8&limit=25&until=1331785108&__paging_token=236724306424283"}}