{"data":[{"id":"433199310096506","from":{"name":"Thomas Alfieri","id":"100002193230672"},"place":{"id":"116622905022984","name":"Chops Lobster Bar","location":{"street":"101 Plaza Real South","city":"Boca Raton","state":"FL","country":"United States","zip":"33432","latitude":26.348522415153,"longitude":-80.084955048902}},"application":{"name":"Facebook for Android","namespace":"fbandroid","id":"350685531728"},"created_time":"2013-03-07T01:13:39+0000"},{"id":"412013772215060","from":{"name":"Thomas Alfieri","id":"100002193230672"},"place":{"id":"116622905022984","name":"Chops Lobster Bar","location":{"street":"101 Plaza Real South","city":"Boca Raton","state":"FL","country":"United States","zip":"33432","latitude":26.348522415153,"longitude":-80.084955048902}},"application":{"name":"Facebook for Android","namespace":"fbandroid","id":"350685531728"},"created_time":"2013-01-26T02:18:45+0000"},{"id":"405741406175630","from":{"name":"Thomas Alfieri","id":"100002193230672"},"place":{"id":"313636842037031","name":"Yard House - Boca Raton","location":{"street":"201 Plaza Real","city":"Boca Raton","state":"FL","country":"United States","zip":"33432","latitude":26.353187304963,"longitude":-80.085567714304}},"application":{"name":"Facebook for Android","namespace":"fbandroid","id":"350685531728"},"created_time":"2013-01-12T03:40:25+0000"},{"id":"400915416658229","from":{"name":"Thomas Alfieri","id":"100002193230672"},"place":{"id":"173743312661383","name":"Lemongrass Asian Bistro of Boca Raton","location":{"street":"101 Plaza Real South","city":"Boca Raton","state":"FL","country":"United States","zip":"33432","latitude":26.347527878853,"longitude":-80.084983384626}},"application":{"name":"Facebook for Android","namespace":"fbandroid","id":"350685531728"},"created_time":"2013-01-01T18:52:13+0000","comments":{"data":[{"id":"400915416658229_2690039","from":{"name":"Peter Leonard","id":"100000584588354"},"message":"far walk!","can_remove":false,"created_time":"2013-01-01T19:05:08+0000","like_count":0,"user_likes":false},{"id":"400915416658229_2690040","from":{"name":"Peter Leonard","id":"100000584588354"},"message":"happy new year","can_remove":false,"created_time":"2013-01-01T19:05:15+0000","like_count":0,"user_likes":false}],"paging":{"next":"https:\/\/graph.facebook.com\/400915416658229\/comments?access_token=AAACEdEose0cBAJwErCNmIPZA6el8rxxyY5ULyI6xBIzYxuyekLKT4jiLPBr1teydoTPlSXlbBEkmB07tIO62Pi4QqIsy3oMtz1ihC5OyZAvdarWSZBe&limit=25&offset=25&__after_id=400915416658229_2690040"}}},{"id":"394784027271368","from":{"name":"Thomas Alfieri","id":"100002193230672"},"place":{"id":"111674795539324","name":"Trattoria Romana","location":{"street":"499 E Palmetto Park Rd","city":"Boca Raton","state":"FL","country":"United States","zip":"33432-5080","latitude":26.350651943051,"longitude":-80.0778749375}},"application":{"name":"Facebook for Android","namespace":"fbandroid","id":"350685531728"},"created_time":"2012-12-19T00:45:27+0000"},{"id":"388566331226471","from":{"name":"Thomas Alfieri","id":"100002193230672"},"place":{"id":"104198306303147","name":"Saquella Cafe' - Boca Raton","location":{"street":"410 Via De Palmas","city":"Boca Raton","state":"FL","country":"United States","zip":"33432","latitude":26.346328277588,"longitude":-80.085451915967}},"application":{"name":"Facebook for Android","namespace":"fbandroid","id":"350685531728"},"created_time":"2012-12-05T02:17:31+0000"},{"id":"387731927976578","from":{"name":"Thomas Alfieri","id":"100002193230672"},"place":{"id":"128804373834994","name":"501 East \u0040 Boca Resort & Club","location":{"street":"","city":"Boca Raton","state":"FL","country":"United States","zip":"33432","latitude":26.34216400278,"longitude":-80.079868091855}},"application":{"name":"Facebook for Android","namespace":"fbandroid","id":"350685531728"},"created_time":"2012-12-02T21:37:05+0000"},{"id":"387062581376846","from":{"name":"Thomas Alfieri","id":"100002193230672"},"place":{"id":"173743312661383","name":"Lemongrass Asian Bistro of Boca Raton","location":{"street":"101 Plaza Real South","city":"Boca Raton","state":"FL","country":"United States","zip":"33432","latitude":26.347527878853,"longitude":-80.084983384626}},"application":{"name":"Facebook for Android","namespace":"fbandroid","id":"350685531728"},"created_time":"2012-12-01T02:23:39+0000"},{"id":"380658015350636","from":{"name":"Thomas Alfieri","id":"100002193230672"},"place":{"id":"101177933300788","name":"Palazzo Spa at Boca Raton Resort","location":{"street":"","city":"Boca Raton","state":"FL","country":"United States","zip":"","latitude":26.342430045199,"longitude":-80.078886332595}},"application":{"name":"Facebook for Android","namespace":"fbandroid","id":"350685531728"},"created_time":"2012-11-13T20:53:40+0000"},{"id":"378160435600394","from":{"name":"Thomas Alfieri","id":"100002193230672"},"place":{"id":"303459376353436","name":"Lemongrass Asian Bistro","location":{"street":"","city":"Boca Raton","state":"FL","country":"United States","zip":"","latitude":26.35565,"longitude":-80.08826}},"application":{"name":"Facebook for Android","namespace":"fbandroid","id":"350685531728"},"created_time":"2012-11-06T22:17:43+0000"},{"id":"375015435914894","from":{"name":"Thomas Alfieri","id":"100002193230672"},"place":{"id":"138487806286914","name":"Yardhouse Mizner","location":{"street":"","city":"Boca Raton","state":"FL","country":"United States","zip":"","latitude":26.353310205771,"longitude":-80.085516391597}},"application":{"name":"Facebook for Android","namespace":"fbandroid","id":"350685531728"},"created_time":"2012-10-30T01:10:30+0000"},{"id":"368021169947654","from":{"name":"Thomas Alfieri","id":"100002193230672"},"place":{"id":"195706770448671","name":"Boca Raton Resort and Yacht Club","location":{"street":"","city":"Boca Raton","state":"FL","country":"United States","zip":"","latitude":26.35469,"longitude":-80.08694}},"application":{"name":"Facebook for Android","namespace":"fbandroid","id":"350685531728"},"created_time":"2012-10-12T00:17:58+0000"},{"id":"367691223313982","from":{"name":"Thomas Alfieri","id":"100002193230672"},"place":{"id":"116622905022984","name":"Chops Lobster Bar","location":{"street":"101 Plaza Real South","city":"Boca Raton","state":"FL","country":"United States","zip":"33432","latitude":26.348522415153,"longitude":-80.084955048902}},"application":{"name":"Facebook for Android","namespace":"fbandroid","id":"350685531728"},"created_time":"2012-10-11T01:18:10+0000"},{"id":"356733011076470","from":{"name":"Thomas Alfieri","id":"100002193230672"},"place":{"id":"116622905022984","name":"Chops Lobster Bar","location":{"street":"101 Plaza Real South","city":"Boca Raton","state":"FL","country":"United States","zip":"33432","latitude":26.348522415153,"longitude":-80.084955048902}},"application":{"name":"Facebook for Android","namespace":"fbandroid","id":"350685531728"},"created_time":"2012-09-10T01:37:51+0000","likes":{"data":[{"id":"1390435182","name":"Edward Ferrer"}],"paging":{"next":"https:\/\/graph.facebook.com\/356733011076470\/likes?access_token=AAACEdEose0cBAJwErCNmIPZA6el8rxxyY5ULyI6xBIzYxuyekLKT4jiLPBr1teydoTPlSXlbBEkmB07tIO62Pi4QqIsy3oMtz1ihC5OyZAvdarWSZBe&limit=25&offset=25&__after_id=1390435182"}}},{"id":"353888578027580","from":{"name":"Thomas Alfieri","id":"100002193230672"},"place":{"id":"195706770448671","name":"Boca Raton Resort and Yacht Club","location":{"street":"","city":"Boca Raton","state":"FL","country":"United States","zip":"","latitude":26.35469,"longitude":-80.08694}},"application":{"name":"Facebook for Android","namespace":"fbandroid","id":"350685531728"},"created_time":"2012-09-02T02:33:14+0000"},{"id":"353520934731011","from":{"name":"Thomas Alfieri","id":"100002193230672"},"place":{"id":"151621128217840","name":"Boca Raton Resort & Club","location":{"street":"501 East Camino Real","city":"Boca Raton","state":"FL","country":"United States","zip":"33432","latitude":26.342005943724,"longitude":-80.077980566156}},"application":{"name":"Facebook for Android","namespace":"fbandroid","id":"350685531728"},"created_time":"2012-09-01T01:07:25+0000","likes":{"data":[{"id":"1246014300","name":"Halley Elise"}],"paging":{"next":"https:\/\/graph.facebook.com\/353520934731011\/likes?access_token=AAACEdEose0cBAJwErCNmIPZA6el8rxxyY5ULyI6xBIzYxuyekLKT4jiLPBr1teydoTPlSXlbBEkmB07tIO62Pi4QqIsy3oMtz1ihC5OyZAvdarWSZBe&limit=25&offset=25&__after_id=1246014300"}}},{"id":"350814915001613","from":{"name":"Thomas Alfieri","id":"100002193230672"},"place":{"id":"200026256717090","name":"Ruths Chris Steakhouse","location":{"street":"","city":"Boca Raton","state":"FL","country":"United States","zip":"","latitude":26.354107689244,"longitude":-80.088655288068}},"application":{"name":"Facebook for Android","namespace":"fbandroid","id":"350685531728"},"created_time":"2012-08-24T00:22:32+0000"},{"id":"350165418399896","from":{"name":"Thomas Alfieri","id":"100002193230672"},"place":{"id":"111674795539324","name":"Trattoria Romana","location":{"street":"499 E Palmetto Park Rd","city":"Boca Raton","state":"FL","country":"United States","zip":"33432-5080","latitude":26.350651943051,"longitude":-80.0778749375}},"application":{"name":"Facebook for Android","namespace":"fbandroid","id":"350685531728"},"created_time":"2012-08-21T23:23:35+0000"},{"id":"348305455252559","from":{"name":"Thomas Alfieri","id":"100002193230672"},"place":{"id":"155099251201147","name":"Morimoto's","location":{"street":"","city":"Boca Raton","state":"FL","country":"United States","zip":"56613","latitude":26.350691734282,"longitude":-80.07588132246}},"application":{"name":"Facebook for Android","namespace":"fbandroid","id":"350685531728"},"created_time":"2012-08-16T00:22:26+0000"},{"id":"347320655351039","from":{"name":"Thomas Alfieri","id":"100002193230672"},"place":{"id":"116622905022984","name":"Chops Lobster Bar","location":{"street":"101 Plaza Real South","city":"Boca Raton","state":"FL","country":"United States","zip":"33432","latitude":26.348522415153,"longitude":-80.084955048902}},"application":{"name":"Facebook for Android","namespace":"fbandroid","id":"350685531728"},"created_time":"2012-08-13T01:47:51+0000"},{"id":"346653315417773","from":{"name":"Thomas Alfieri","id":"100002193230672"},"place":{"id":"157129778818","name":"Boca Raton Resort","location":{"street":"501 East Camino Real","city":"Boca Raton","state":"FL","country":"United States","zip":"33432","latitude":26.342028771175,"longitude":-80.077965969371}},"application":{"name":"Facebook for Android","namespace":"fbandroid","id":"350685531728"},"created_time":"2012-08-11T03:07:48+0000"}],"paging":{"previous":"https:\/\/graph.facebook.com\/100002193230672\/checkins?access_token=AAACEdEose0cBAJwErCNmIPZA6el8rxxyY5ULyI6xBIzYxuyekLKT4jiLPBr1teydoTPlSXlbBEkmB07tIO62Pi4QqIsy3oMtz1ihC5OyZAvdarWSZBe&limit=25&since=1362618819&__paging_token=433199310096506&__previous=1","next":"https:\/\/graph.facebook.com\/100002193230672\/checkins?access_token=AAACEdEose0cBAJwErCNmIPZA6el8rxxyY5ULyI6xBIzYxuyekLKT4jiLPBr1teydoTPlSXlbBEkmB07tIO62Pi4QqIsy3oMtz1ihC5OyZAvdarWSZBe&limit=25&until=1344654468&__paging_token=346653315417773"}}