{"data":[{"id":"10151111442400987","from":{"name":"Justin Gould","id":"518430986"},"message":"Fashion week","place":{"id":"100266560805","name":"W South Beach","location":{"street":"2201 Collins Ave","city":"Miami Beach","state":"FL","country":"United States","zip":"33139","latitude":25.797120031372,"longitude":-80.127732082659}},"application":{"name":"Facebook for iPhone","namespace":"fbiphone","id":"6628568379"},"created_time":"2012-07-21T01:12:48+0000","likes":{"data":[{"id":"1442520850","name":"Vickie Silva"},{"id":"703643725","name":"Julie Setren Kitt"}],"paging":{"next":"https:\/\/graph.facebook.com\/10151111442400987\/likes?access_token=AAACEdEose0cBANxi7k8QsMaWuZCjlezhxCbI9yI8Xhzp5VUPUjvnraUZAiKZCVeQQwGmM7P4RjdOfrm4ou6L1oBLZAereSMJeZARVYmju7ZAnNOt5Qfh1n&limit=25&offset=25&__after_id=703643725"}},"tags":{"data":[{"id":"1442066649","name":"Jon Levine"},{"id":"1396787647","name":"Adina Setren Gould"}],"paging":{"next":"https:\/\/graph.facebook.com\/10151111442400987\/tags?access_token=AAACEdEose0cBANxi7k8QsMaWuZCjlezhxCbI9yI8Xhzp5VUPUjvnraUZAiKZCVeQQwGmM7P4RjdOfrm4ou6L1oBLZAereSMJeZARVYmju7ZAnNOt5Qfh1n&limit=25&offset=25&__after_id=1396787647"}}},{"id":"10151057630405987","from":{"name":"Justin Gould","id":"518430986"},"place":{"id":"183228568376636","name":"Gould Vision","location":{"street":"523 41st Street","city":"Miami Beach","state":"FL","country":"United States","zip":"33140","latitude":25.82728,"longitude":-80.12674}},"application":{"name":"Mobile","id":"2915120374"},"created_time":"2012-06-26T19:41:15+0000","likes":{"data":[{"id":"847515416","name":"Aaron Resnick"}],"paging":{"next":"https:\/\/graph.facebook.com\/10151057630405987\/likes?access_token=AAACEdEose0cBANxi7k8QsMaWuZCjlezhxCbI9yI8Xhzp5VUPUjvnraUZAiKZCVeQQwGmM7P4RjdOfrm4ou6L1oBLZAereSMJeZARVYmju7ZAnNOt5Qfh1n&limit=25&offset=25&__after_id=847515416"}}},{"id":"10151054309805987","from":{"name":"Justin Gould","id":"518430986"},"place":{"id":"183228568376636","name":"Gould Vision","location":{"street":"523 41st Street","city":"Miami Beach","state":"FL","country":"United States","zip":"33140","latitude":25.82728,"longitude":-80.12674}},"application":{"name":"Mobile","id":"2915120374"},"created_time":"2012-06-25T12:19:17+0000","likes":{"data":[{"id":"1442066649","name":"Jon Levine"}],"paging":{"next":"https:\/\/graph.facebook.com\/10151054309805987\/likes?access_token=AAACEdEose0cBANxi7k8QsMaWuZCjlezhxCbI9yI8Xhzp5VUPUjvnraUZAiKZCVeQQwGmM7P4RjdOfrm4ou6L1oBLZAereSMJeZARVYmju7ZAnNOt5Qfh1n&limit=25&offset=25&__after_id=1442066649"}}},{"id":"10150323645915987","from":{"name":"Justin Gould","id":"518430986"},"place":{"id":"112777352071031","name":"Sag Harbor, New York","location":{"street":"","zip":"","latitude":41.00174103985,"longitude":-72.295797052016}},"application":{"name":"Facebook for iPhone","namespace":"fbiphone","id":"6628568379"},"created_time":"2011-07-27T15:34:49+0000","likes":{"data":[{"id":"678101576","name":"Alexandra Ramirez Marquez"}],"paging":{"next":"https:\/\/graph.facebook.com\/10150323645915987\/likes?access_token=AAACEdEose0cBANxi7k8QsMaWuZCjlezhxCbI9yI8Xhzp5VUPUjvnraUZAiKZCVeQQwGmM7P4RjdOfrm4ou6L1oBLZAereSMJeZARVYmju7ZAnNOt5Qfh1n&limit=25&offset=25&__after_id=678101576"}}},{"id":"10150282190285987","from":{"name":"Justin Gould","id":"518430986"},"place":{"id":"183228568376636","name":"Gould Vision","location":{"street":"523 41st Street","city":"Miami Beach","state":"FL","country":"United States","zip":"33140","latitude":25.82728,"longitude":-80.12674}},"application":{"name":"Facebook for iPhone","namespace":"fbiphone","id":"6628568379"},"created_time":"2011-06-24T15:20:43+0000","likes":{"data":[{"id":"1537503549","name":"Tammy Dorfman"},{"id":"1096413776","name":"Yael Gurwitz- Elkin"}],"paging":{"next":"https:\/\/graph.facebook.com\/10150282190285987\/likes?access_token=AAACEdEose0cBANxi7k8QsMaWuZCjlezhxCbI9yI8Xhzp5VUPUjvnraUZAiKZCVeQQwGmM7P4RjdOfrm4ou6L1oBLZAereSMJeZARVYmju7ZAnNOt5Qfh1n&limit=25&offset=25&__after_id=1096413776"}}},{"id":"10150275119475987","from":{"name":"Justin Gould","id":"518430986"},"place":{"id":"183228568376636","name":"Gould Vision","location":{"street":"523 41st Street","city":"Miami Beach","state":"FL","country":"United States","zip":"33140","latitude":25.82728,"longitude":-80.12674}},"application":{"name":"Facebook for iPhone","namespace":"fbiphone","id":"6628568379"},"created_time":"2011-06-17T10:48:04+0000"},{"id":"10150263110785987","from":{"name":"Justin Gould","id":"518430986"},"place":{"id":"183228568376636","name":"Gould Vision","location":{"street":"523 41st Street","city":"Miami Beach","state":"FL","country":"United States","zip":"33140","latitude":25.82728,"longitude":-80.12674}},"application":{"name":"Facebook for iPhone","namespace":"fbiphone","id":"6628568379"},"created_time":"2011-06-04T13:57:11+0000","comments":{"data":[{"id":"10150263110785987_17588702","from":{"name":"Yael Gurwitz- Elkin","id":"1096413776"},"message":"See you guys soon! Gould\nVision is the best I wouldn't go any other place :)","can_remove":false,"created_time":"2011-06-04T14:55:16+0000","like_count":0,"user_likes":false}],"paging":{"next":"https:\/\/graph.facebook.com\/10150263110785987\/comments?access_token=AAACEdEose0cBANxi7k8QsMaWuZCjlezhxCbI9yI8Xhzp5VUPUjvnraUZAiKZCVeQQwGmM7P4RjdOfrm4ou6L1oBLZAereSMJeZARVYmju7ZAnNOt5Qfh1n&limit=25&offset=25&__after_id=10150263110785987_17588702"}}},{"id":"10150235529230987","from":{"name":"Justin Gould","id":"518430986"},"place":{"id":"134452076621104","name":"Gould residence","location":{"street":"","city":"Miami Beach","state":"FL","country":"United States","zip":"","latitude":25.84777665,"longitude":-80.12136393}},"application":{"name":"Facebook for iPhone","namespace":"fbiphone","id":"6628568379"},"created_time":"2011-05-07T19:33:19+0000"},{"id":"10150230200325987","from":{"name":"Justin Gould","id":"518430986"},"place":{"id":"183228568376636","name":"Gould Vision","location":{"street":"523 41st Street","city":"Miami Beach","state":"FL","country":"United States","zip":"33140","latitude":25.82728,"longitude":-80.12674}},"application":{"name":"Facebook for iPhone","namespace":"fbiphone","id":"6628568379"},"created_time":"2011-05-01T21:39:10+0000"},{"id":"10150147034915987","from":{"name":"Justin Gould","id":"518430986"},"message":"It's work time. Come on loose players!","place":{"id":"176086862529","name":"GULFSTREAM PARK RACING & CASINO","location":{"street":"901 S Federal Hwy","city":"Hallandale Beach","state":"FL","country":"United States","zip":"33009","latitude":25.978130341311,"longitude":-80.139333338319}},"application":{"name":"Checkin Map for iPhone and iPad","namespace":"checkinmap","id":"153116924730274"},"created_time":"2011-02-28T01:02:26+0000"},{"id":"10150140983990987","from":{"name":"Justin Gould","id":"518430986"},"place":{"id":"103900043022318","name":"Gould Vision","location":{"street":"","city":"Miami Beach","state":"FL","country":"United States","zip":"","latitude":25.848339077482,"longitude":-80.123713454798}},"application":{"name":"Facebook Touch","id":"442616890626"},"created_time":"2011-02-20T05:30:58+0000"},{"id":"10150139310125987","from":{"name":"Justin Gould","id":"518430986"},"place":{"id":"134452076621104","name":"Gould residence","location":{"street":"","city":"Miami Beach","state":"FL","country":"United States","zip":"","latitude":25.84777665,"longitude":-80.12136393}},"application":{"name":"Facebook Touch","id":"442616890626"},"created_time":"2011-02-17T23:38:15+0000","likes":{"data":[{"id":"564446133","name":"Becky Epelbaum Lusky"}],"paging":{"next":"https:\/\/graph.facebook.com\/10150139310125987\/likes?access_token=AAACEdEose0cBANxi7k8QsMaWuZCjlezhxCbI9yI8Xhzp5VUPUjvnraUZAiKZCVeQQwGmM7P4RjdOfrm4ou6L1oBLZAereSMJeZARVYmju7ZAnNOt5Qfh1n&limit=25&offset=25&__after_id=564446133"}},"comments":{"data":[{"id":"10150139310125987_15277724","from":{"name":"Arnie London","id":"100001487920883"},"message":"i wasn't invited-anyhow, the food[if cheapo ordered any] was not to my qualifications-so there","can_remove":false,"created_time":"2011-02-18T03:18:15+0000","like_count":0,"user_likes":false}],"paging":{"next":"https:\/\/graph.facebook.com\/10150139310125987\/comments?access_token=AAACEdEose0cBANxi7k8QsMaWuZCjlezhxCbI9yI8Xhzp5VUPUjvnraUZAiKZCVeQQwGmM7P4RjdOfrm4ou6L1oBLZAereSMJeZARVYmju7ZAnNOt5Qfh1n&limit=25&offset=25&__after_id=10150139310125987_15277724"}}}],"paging":{"previous":"https:\/\/graph.facebook.com\/518430986\/checkins?access_token=AAACEdEose0cBANxi7k8QsMaWuZCjlezhxCbI9yI8Xhzp5VUPUjvnraUZAiKZCVeQQwGmM7P4RjdOfrm4ou6L1oBLZAereSMJeZARVYmju7ZAnNOt5Qfh1n&limit=25&since=1342833168&__paging_token=10151111442400987&__previous=1","next":"https:\/\/graph.facebook.com\/518430986\/checkins?access_token=AAACEdEose0cBANxi7k8QsMaWuZCjlezhxCbI9yI8Xhzp5VUPUjvnraUZAiKZCVeQQwGmM7P4RjdOfrm4ou6L1oBLZAereSMJeZARVYmju7ZAnNOt5Qfh1n&limit=25&until=1297985895&__paging_token=10150139310125987"}}