{"data":[{"id":"10151543022809101","from":{"name":"Natalie Thomann","id":"672934100"},"place":{"id":"101970536534423","name":"The Roof Garden at  The Peninsula Beverly Hills","location":{"street":"9882 South Santa Monica Blvd","city":"Beverly Hills","state":"CA","country":"United States","zip":"90212","latitude":34.065569029302,"longitude":-118.41061861752}},"application":{"name":"Facebook for iPhone","namespace":"fbiphone","id":"6628568379"},"created_time":"2013-03-04T23:58:39+0000","likes":{"data":[{"id":"624423139","name":"Maria Wijngaarde"},{"id":"5208248","name":"Adrienne Grenier"},{"id":"598349901","name":"Maya Terushkova"}],"paging":{"next":"https:\/\/graph.facebook.com\/10151543022809101\/likes?access_token=AAACEdEose0cBAMYosNuQgnCMBhgO4meNR3qH1cjXNhenSu6GRD6HiTa20OCYdbn297Lf2pZALjodgovOYrfZB0K5KvL0ONYoSHKuOldxmnwN01tZBh8&limit=25&offset=25&__after_id=598349901"}},"comments":{"data":[{"id":"10151543022809101_27517339","from":{"name":"John Mccarthy","id":"1823025531"},"message":"Nice Natalie,looks beautiful.","can_remove":false,"created_time":"2013-03-05T00:04:53+0000","like_count":0,"user_likes":false}],"paging":{"cursors":{"after":"MQ==","before":"MQ=="},"next":"https:\/\/graph.facebook.com\/10151543022809101\/comments?access_token=AAACEdEose0cBAMYosNuQgnCMBhgO4meNR3qH1cjXNhenSu6GRD6HiTa20OCYdbn297Lf2pZALjodgovOYrfZB0K5KvL0ONYoSHKuOldxmnwN01tZBh8&limit=25&after=MQ\u00253D\u00253D"}}},{"id":"10151414257634101","from":{"name":"Natalie Thomann","id":"672934100"},"place":{"id":"107138119326733","name":"The Forge","location":{"street":"432 Forty First Street ","city":"Miami Beach","state":"FL","country":"United States","zip":"33140","latitude":25.813585492728,"longitude":-80.12841990652}},"application":{"name":"Facebook for iPhone","namespace":"fbiphone","id":"6628568379"},"created_time":"2013-01-10T23:51:03+0000","likes":{"data":[{"id":"10618884","name":"Sam Hall"}],"paging":{"next":"https:\/\/graph.facebook.com\/10151414257634101\/likes?access_token=AAACEdEose0cBAMYosNuQgnCMBhgO4meNR3qH1cjXNhenSu6GRD6HiTa20OCYdbn297Lf2pZALjodgovOYrfZB0K5KvL0ONYoSHKuOldxmnwN01tZBh8&limit=25&offset=25&__after_id=10618884"}}},{"id":"10151412711199101","from":{"name":"Natalie Thomann","id":"672934100"},"place":{"id":"196347270384400","name":"Rosa Mexicano","location":{"street":"Lincoln Road","city":"Miami Beach","state":"FL","country":"United States","zip":"33139","latitude":25.790574546627,"longitude":-80.141163051732}},"application":{"name":"Facebook for iPhone","namespace":"fbiphone","id":"6628568379"},"created_time":"2013-01-10T01:36:38+0000","likes":{"data":[{"id":"624423139","name":"Maria Wijngaarde"},{"id":"564237143","name":"Natalia A Kotova"},{"id":"1553958162","name":"Nathan Gosline"},{"id":"837135298","name":"Snezana Durich"}],"paging":{"next":"https:\/\/graph.facebook.com\/10151412711199101\/likes?access_token=AAACEdEose0cBAMYosNuQgnCMBhgO4meNR3qH1cjXNhenSu6GRD6HiTa20OCYdbn297Lf2pZALjodgovOYrfZB0K5KvL0ONYoSHKuOldxmnwN01tZBh8&limit=25&offset=25&__after_id=837135298"}},"tags":{"data":[{"id":"1075898041","name":"Jeniya Penrod"},{"id":"564237143","name":"Natalia A Kotova"}],"paging":{"next":"https:\/\/graph.facebook.com\/10151412711199101\/tags?access_token=AAACEdEose0cBAMYosNuQgnCMBhgO4meNR3qH1cjXNhenSu6GRD6HiTa20OCYdbn297Lf2pZALjodgovOYrfZB0K5KvL0ONYoSHKuOldxmnwN01tZBh8&limit=25&offset=25&__after_id=564237143"}},"comments":{"data":[{"id":"10151412711199101_26777072","from":{"name":"Sabrina Robertson","id":"667214611"},"message":"Miss you sexy ladies!","can_remove":false,"created_time":"2013-01-10T03:20:33+0000","like_count":1,"user_likes":false},{"id":"10151412711199101_26777084","from":{"name":"Jeniya Penrod","id":"1075898041"},"message":"We miss you too","can_remove":false,"created_time":"2013-01-10T03:21:18+0000","like_count":0,"user_likes":false}],"paging":{"cursors":{"after":"Mg==","before":"MQ=="},"next":"https:\/\/graph.facebook.com\/10151412711199101\/comments?access_token=AAACEdEose0cBAMYosNuQgnCMBhgO4meNR3qH1cjXNhenSu6GRD6HiTa20OCYdbn297Lf2pZALjodgovOYrfZB0K5KvL0ONYoSHKuOldxmnwN01tZBh8&limit=25&after=Mg\u00253D\u00253D"}}},{"id":"10151407739239101","from":{"name":"Natalie Thomann","id":"672934100"},"place":{"id":"215799245113245","name":"Aerport Paris Orly Iberia Business lounge","location":{"street":"","zip":"","latitude":48.729945422604,"longitude":2.3596964653141}},"application":{"name":"Facebook for iPhone","namespace":"fbiphone","id":"6628568379"},"created_time":"2013-01-07T08:59:42+0000","likes":{"data":[{"id":"1414853164","name":"Jos\u00e9 Darrieux"}],"paging":{"next":"https:\/\/graph.facebook.com\/10151407739239101\/likes?access_token=AAACEdEose0cBAMYosNuQgnCMBhgO4meNR3qH1cjXNhenSu6GRD6HiTa20OCYdbn297Lf2pZALjodgovOYrfZB0K5KvL0ONYoSHKuOldxmnwN01tZBh8&limit=25&offset=25&__after_id=1414853164"}}},{"id":"10151359954434101","from":{"name":"Natalie Thomann","id":"672934100"},"message":"Home","place":{"id":"122454021137348","name":"Miami International Airport (MIA)","location":{"street":"1640 NW 42nd Ave","city":"Miami","state":"FL","country":"United States","zip":"33126","latitude":25.796920100989,"longitude":-80.277983567386}},"application":{"name":"Facebook for iPhone","namespace":"fbiphone","id":"6628568379"},"created_time":"2012-12-10T22:23:00+0000","likes":{"data":[{"id":"1535298110","name":"Tristram Shandy"},{"id":"1290413390","name":"Stefan Winkler"},{"id":"100000796477814","name":"Warren Lindsey Jr"},{"id":"1020916287","name":"Hrh Ani Pinkert"},{"id":"550106812","name":"Stephen Briones"},{"id":"1295667694","name":"Steve Boyer"},{"id":"1414853164","name":"Jos\u00e9 Darrieux"},{"id":"100001488877852","name":"Wassim Wazza Kanzari"}],"paging":{"next":"https:\/\/graph.facebook.com\/10151359954434101\/likes?access_token=AAACEdEose0cBAMYosNuQgnCMBhgO4meNR3qH1cjXNhenSu6GRD6HiTa20OCYdbn297Lf2pZALjodgovOYrfZB0K5KvL0ONYoSHKuOldxmnwN01tZBh8&limit=25&offset=25&__after_id=100001488877852"}}},{"id":"10151358381304101","from":{"name":"Natalie Thomann","id":"672934100"},"place":{"id":"146402055421642","name":"Domaine Chandon Winery","location":{"street":"","city":"Yountville","state":"CA","country":"United States","zip":"94599","latitude":38.396829349871,"longitude":-122.36425835}},"application":{"name":"Facebook for iPhone","namespace":"fbiphone","id":"6628568379"},"created_time":"2012-12-09T23:08:30+0000"},{"id":"10151358303699101","from":{"name":"Natalie Thomann","id":"672934100"},"place":{"id":"117427601614573","name":"Dean & DeLuca Wine","location":{"street":"1275 Inglewood Avenue","city":"Saint Helena","state":"CA","country":"United States","zip":"94574","latitude":38.488637724719,"longitude":-122.45011625461}},"application":{"name":"Facebook for iPhone","namespace":"fbiphone","id":"6628568379"},"created_time":"2012-12-09T22:07:35+0000"},{"id":"10151356860549101","from":{"name":"Natalie Thomann","id":"672934100"},"place":{"id":"133456066705327","name":"Charles Krug","location":{"street":"","city":"Saint Helena","state":"CA","country":"United States","zip":"94515","latitude":38.518452809023,"longitude":-122.48241913697}},"application":{"name":"Facebook for iPhone","namespace":"fbiphone","id":"6628568379"},"created_time":"2012-12-08T23:53:43+0000","comments":{"data":[{"id":"10151356860549101_26377417","from":{"name":"Natalie Thomann","id":"672934100"},"message":"Not my fave...","can_remove":false,"created_time":"2012-12-09T00:42:27+0000","like_count":0,"user_likes":false}],"paging":{"cursors":{"after":"MQ==","before":"MQ=="},"next":"https:\/\/graph.facebook.com\/10151356860549101\/comments?access_token=AAACEdEose0cBAMYosNuQgnCMBhgO4meNR3qH1cjXNhenSu6GRD6HiTa20OCYdbn297Lf2pZALjodgovOYrfZB0K5KvL0ONYoSHKuOldxmnwN01tZBh8&limit=25&after=MQ\u00253D\u00253D"}}},{"id":"10151356743924101","from":{"name":"Natalie Thomann","id":"672934100"},"place":{"id":"364045143632026","name":"Chateau Boswell","location":{"street":"3468 Silverado Trail North","city":"Saint Helena","state":"CA","country":"United States","zip":"94574","latitude":38.544731,"longitude":-122.48748}},"application":{"name":"Facebook for iPhone","namespace":"fbiphone","id":"6628568379"},"created_time":"2012-12-08T22:11:34+0000"},{"id":"10151356732514101","from":{"name":"Natalie Thomann","id":"672934100"},"place":{"id":"113959248622103","name":"Duckhorn Vineyards","location":{"street":"1000 Lodi Lane","city":"Saint Helena","state":"CA","country":"United States","zip":"94574","latitude":38.529378252552,"longitude":-122.49071088372}},"application":{"name":"Facebook for iPhone","namespace":"fbiphone","id":"6628568379"},"created_time":"2012-12-08T22:01:30+0000","comments":{"data":[{"id":"10151356732514101_26377393","from":{"name":"Natalie Thomann","id":"672934100"},"message":"Wow ! I thought Opus 1 was amazing, the cab frank here is unreal!","can_remove":false,"created_time":"2012-12-09T00:39:00+0000","like_count":0,"user_likes":false}],"paging":{"cursors":{"after":"MQ==","before":"MQ=="},"next":"https:\/\/graph.facebook.com\/10151356732514101\/comments?access_token=AAACEdEose0cBAMYosNuQgnCMBhgO4meNR3qH1cjXNhenSu6GRD6HiTa20OCYdbn297Lf2pZALjodgovOYrfZB0K5KvL0ONYoSHKuOldxmnwN01tZBh8&limit=25&after=MQ\u00253D\u00253D"}}},{"id":"10151356712304101","from":{"name":"Natalie Thomann","id":"672934100"},"place":{"id":"174179279260859","name":"St. Sup\u00e9ry's Winery","location":{"street":"","city":"Saint Helena","state":"CA","country":"United States","zip":"","latitude":38.45499662471,"longitude":-122.41469613651}},"application":{"name":"Facebook for iPhone","namespace":"fbiphone","id":"6628568379"},"created_time":"2012-12-08T21:48:25+0000"},{"id":"10151356658114101","from":{"name":"Natalie Thomann","id":"672934100"},"place":{"id":"112293965490506","name":"Opus One Winery","location":{"street":"7900 Saint Helena Hwy Oakville, CA","city":"Saint Helena","state":"CA","country":"United States","zip":"94562","latitude":38.441255055352,"longitude":-122.3998686592}},"application":{"name":"Facebook for iPhone","namespace":"fbiphone","id":"6628568379"},"created_time":"2012-12-08T21:06:22+0000"},{"id":"10151356612024101","from":{"name":"Natalie Thomann","id":"672934100"},"place":{"id":"109689402400639","name":"Robert Sinskey Vineyards","location":{"street":"6320 Silverado Trl","city":"Napa","state":"CA","country":"United States","zip":"94558-9747","latitude":38.425231233999,"longitude":-122.33703268583}},"application":{"name":"Facebook for iPhone","namespace":"fbiphone","id":"6628568379"},"created_time":"2012-12-08T20:26:05+0000"},{"id":"10151356556479101","from":{"name":"Natalie Thomann","id":"672934100"},"message":"Superb","place":{"id":"128765543892830","name":"bouchon Restaurant","location":{"street":"6534 Washington Street","city":"Yountville","state":"CA","country":"United States","zip":"California, 94599","latitude":38.4026234,"longitude":-122.3619157}},"application":{"name":"Facebook for iPhone","namespace":"fbiphone","id":"6628568379"},"created_time":"2012-12-08T19:43:44+0000","comments":{"data":[{"id":"10151356556479101_26374370","from":{"name":"Natalie Thomann","id":"672934100"},"message":"Superb, 1 Michelin star","can_remove":false,"created_time":"2012-12-08T19:51:10+0000","like_count":0,"user_likes":false}],"paging":{"cursors":{"after":"MQ==","before":"MQ=="},"next":"https:\/\/graph.facebook.com\/10151356556479101\/comments?access_token=AAACEdEose0cBAMYosNuQgnCMBhgO4meNR3qH1cjXNhenSu6GRD6HiTa20OCYdbn297Lf2pZALjodgovOYrfZB0K5KvL0ONYoSHKuOldxmnwN01tZBh8&limit=25&after=MQ\u00253D\u00253D"}}},{"id":"10151355512229101","from":{"name":"Natalie Thomann","id":"672934100"},"message":"Only Natalie Thomann can leave the house at 6.15 and make a 7.00 flight","place":{"id":"161978553829467","name":"Delta Sky Club at Hartsfield-Jackson Atlanta International Airport","location":{"street":"6000 North Terminal Parkway","city":"Atlanta","state":"GA","country":"United States","zip":"30320","latitude":33.640663648756,"longitude":-84.432504184957}},"application":{"name":"Facebook for iPhone","namespace":"fbiphone","id":"6628568379"},"created_time":"2012-12-08T02:08:27+0000","likes":{"data":[{"id":"516202331","name":"Jessica Dolores"},{"id":"1460299279","name":"Sasha Gerchik"},{"id":"1295667694","name":"Steve Boyer"},{"id":"1535298110","name":"Tristram Shandy"}],"paging":{"next":"https:\/\/graph.facebook.com\/10151355512229101\/likes?access_token=AAACEdEose0cBAMYosNuQgnCMBhgO4meNR3qH1cjXNhenSu6GRD6HiTa20OCYdbn297Lf2pZALjodgovOYrfZB0K5KvL0ONYoSHKuOldxmnwN01tZBh8&limit=25&offset=25&__after_id=1535298110"}},"comments":{"data":[{"id":"10151355512229101_26367144","from":{"name":"Agita Abati","id":"1358139694"},"message":"Always efficient:)","can_remove":false,"created_time":"2012-12-08T02:15:45+0000","like_count":0,"user_likes":false}],"paging":{"cursors":{"after":"MQ==","before":"MQ=="},"next":"https:\/\/graph.facebook.com\/10151355512229101\/comments?access_token=AAACEdEose0cBAMYosNuQgnCMBhgO4meNR3qH1cjXNhenSu6GRD6HiTa20OCYdbn297Lf2pZALjodgovOYrfZB0K5KvL0ONYoSHKuOldxmnwN01tZBh8&limit=25&after=MQ\u00253D\u00253D"}}},{"id":"10151330525719101","from":{"name":"Natalie Thomann","id":"672934100"},"place":{"id":"122454021137348","name":"Miami International Airport (MIA)","location":{"street":"1640 NW 42nd Ave","city":"Miami","state":"FL","country":"United States","zip":"33126","latitude":25.796920100989,"longitude":-80.277983567386}},"application":{"name":"Facebook for iPhone","namespace":"fbiphone","id":"6628568379"},"created_time":"2012-11-21T18:01:01+0000","likes":{"data":[{"id":"666122128","name":"Jorge Francisco Ascui"},{"id":"516202331","name":"Jessica Dolores"},{"id":"100001485521879","name":"John Fadool"}],"paging":{"next":"https:\/\/graph.facebook.com\/10151330525719101\/likes?access_token=AAACEdEose0cBAMYosNuQgnCMBhgO4meNR3qH1cjXNhenSu6GRD6HiTa20OCYdbn297Lf2pZALjodgovOYrfZB0K5KvL0ONYoSHKuOldxmnwN01tZBh8&limit=25&offset=25&__after_id=100001485521879"}},"comments":{"data":[{"id":"10151330525719101_26165442","from":{"name":"Jesse Panama","id":"722797879"},"message":"where are you off to now, my fellow jetsetter?","can_remove":false,"created_time":"2012-11-21T20:21:49+0000","like_count":0,"user_likes":false},{"id":"10151330525719101_26170682","from":{"name":"Natalie Thomann","id":"672934100"},"message":"secret :)","can_remove":false,"created_time":"2012-11-22T04:50:19+0000","like_count":0,"user_likes":false},{"id":"10151330525719101_26170699","from":{"name":"Jesse Panama","id":"722797879"},"message":"lol then inbox it to me! :)","can_remove":false,"created_time":"2012-11-22T04:52:13+0000","like_count":0,"user_likes":false}],"paging":{"cursors":{"after":"Mw==","before":"MQ=="},"next":"https:\/\/graph.facebook.com\/10151330525719101\/comments?access_token=AAACEdEose0cBAMYosNuQgnCMBhgO4meNR3qH1cjXNhenSu6GRD6HiTa20OCYdbn297Lf2pZALjodgovOYrfZB0K5KvL0ONYoSHKuOldxmnwN01tZBh8&limit=25&after=Mw\u00253D\u00253D"}}},{"id":"10151323528984101","from":{"name":"Natalie Thomann","id":"672934100"},"place":{"id":"270617796376407","name":"Warren Tricomi Salon","location":{"street":"","city":"Miami Beach","state":"FL","country":"United States","zip":"","latitude":25.79816746864,"longitude":-80.128086989285}},"application":{"name":"Facebook for iPhone","namespace":"fbiphone","id":"6628568379"},"created_time":"2012-11-17T00:22:38+0000"},{"id":"10151302793744101","from":{"name":"Natalie Thomann","id":"672934100"},"place":{"id":"167700146575235","name":"Bleau Bar","location":{"street":"4441 Collins Ave","city":"Miami Beach","state":"FL","country":"United States","zip":"33140","latitude":25.817482952433,"longitude":-80.1223431371}},"application":{"name":"Facebook for iPhone","namespace":"fbiphone","id":"6628568379"},"created_time":"2012-11-11T06:33:41+0000","tags":{"data":[{"id":"100001102267551","name":"Michelle McMahon"}],"paging":{"next":"https:\/\/graph.facebook.com\/10151302793744101\/tags?access_token=AAACEdEose0cBAMYosNuQgnCMBhgO4meNR3qH1cjXNhenSu6GRD6HiTa20OCYdbn297Lf2pZALjodgovOYrfZB0K5KvL0ONYoSHKuOldxmnwN01tZBh8&limit=25&offset=25&__after_id=100001102267551"}}},{"id":"10151287472274101","from":{"name":"Natalie Thomann","id":"672934100"},"message":"Foie gras","place":{"id":"412115042157288","name":"La Gloutonnerie","location":{"street":"81 Washington Avenue","city":"Miami","state":"FL","country":"United States","zip":"33139","latitude":25.769823762083,"longitude":-80.134869617765}},"application":{"name":"Facebook for iPhone","namespace":"fbiphone","id":"6628568379"},"created_time":"2012-11-07T00:21:32+0000","likes":{"data":[{"id":"1531269504","name":"Michelle Trella"},{"id":"100004408091847","name":"Smensa Biashari"},{"id":"1561242141","name":"Pierre Tutundjian"},{"id":"1161333597","name":"Nataliya Browarek"}],"paging":{"next":"https:\/\/graph.facebook.com\/10151287472274101\/likes?access_token=AAACEdEose0cBAMYosNuQgnCMBhgO4meNR3qH1cjXNhenSu6GRD6HiTa20OCYdbn297Lf2pZALjodgovOYrfZB0K5KvL0ONYoSHKuOldxmnwN01tZBh8&limit=25&offset=25&__after_id=1161333597"}},"tags":{"data":[{"id":"1358139694","name":"Agita Abati"}],"paging":{"next":"https:\/\/graph.facebook.com\/10151287472274101\/tags?access_token=AAACEdEose0cBAMYosNuQgnCMBhgO4meNR3qH1cjXNhenSu6GRD6HiTa20OCYdbn297Lf2pZALjodgovOYrfZB0K5KvL0ONYoSHKuOldxmnwN01tZBh8&limit=25&offset=25&__after_id=1358139694"}}},{"id":"10151283713714101","from":{"name":"Natalie Thomann","id":"672934100"},"place":{"id":"238247346165","name":"Oliver's Bistro","location":{"street":"959 West Avenue","city":"Miami Beach","state":"FL","country":"United States","zip":"33139","latitude":25.779345921166,"longitude":-80.142169055859}},"application":{"name":"Facebook for iPhone","namespace":"fbiphone","id":"6628568379"},"created_time":"2012-11-05T23:19:23+0000"},{"id":"10151273093364101","from":{"name":"Natalie Thomann","id":"672934100"},"place":{"id":"241572075948518","name":"Delano Miami","location":{"street":"","city":"Miami Beach","state":"FL","country":"United States","zip":"","latitude":25.795867153092,"longitude":-80.128710498022}},"application":{"name":"Facebook for iPhone","namespace":"fbiphone","id":"6628568379"},"created_time":"2012-11-03T05:40:38+0000","likes":{"data":[{"id":"1429356432","name":"John Martinez"}],"paging":{"next":"https:\/\/graph.facebook.com\/10151273093364101\/likes?access_token=AAACEdEose0cBAMYosNuQgnCMBhgO4meNR3qH1cjXNhenSu6GRD6HiTa20OCYdbn297Lf2pZALjodgovOYrfZB0K5KvL0ONYoSHKuOldxmnwN01tZBh8&limit=25&offset=25&__after_id=1429356432"}}},{"id":"10151173012089101","from":{"name":"Natalie Thomann","id":"672934100"},"place":{"id":"334427679963133","name":"La Gloutonnerie Miami Beach","location":{"street":"81 Washington Ave","city":"Miami Beach","state":"FL","country":"United States","zip":"33139","latitude":25.769823762083,"longitude":-80.134869617765}},"application":{"name":"Facebook for iPhone","namespace":"fbiphone","id":"6628568379"},"created_time":"2012-09-15T03:12:01+0000","likes":{"data":[{"id":"100000153234359","name":"Masha Masha"}],"paging":{"next":"https:\/\/graph.facebook.com\/10151173012089101\/likes?access_token=AAACEdEose0cBAMYosNuQgnCMBhgO4meNR3qH1cjXNhenSu6GRD6HiTa20OCYdbn297Lf2pZALjodgovOYrfZB0K5KvL0ONYoSHKuOldxmnwN01tZBh8&limit=25&offset=25&__after_id=100000153234359"}},"tags":{"data":[{"id":"100001852586406","name":"Matthew Thomann"}],"paging":{"next":"https:\/\/graph.facebook.com\/10151173012089101\/tags?access_token=AAACEdEose0cBAMYosNuQgnCMBhgO4meNR3qH1cjXNhenSu6GRD6HiTa20OCYdbn297Lf2pZALjodgovOYrfZB0K5KvL0ONYoSHKuOldxmnwN01tZBh8&limit=25&offset=25&__after_id=100001852586406"}}},{"id":"10151165746389101","from":{"name":"Natalie Thomann","id":"672934100"},"message":"Missing Spain","place":{"id":"196743910381338","name":"Barceloneta","location":{"street":"1400 20th street ","city":"Miami","state":"FL","country":"United States","zip":"33139","latitude":25.795384718026,"longitude":-80.143909940656}},"application":{"name":"Facebook for iPhone","namespace":"fbiphone","id":"6628568379"},"created_time":"2012-09-10T00:14:06+0000","likes":{"data":[{"id":"624423139","name":"Maria Wijngaarde"},{"id":"697936175","name":"Mario Citriniti"},{"id":"1230238211","name":"DougReiter Kirk Slade"}],"paging":{"next":"https:\/\/graph.facebook.com\/10151165746389101\/likes?access_token=AAACEdEose0cBAMYosNuQgnCMBhgO4meNR3qH1cjXNhenSu6GRD6HiTa20OCYdbn297Lf2pZALjodgovOYrfZB0K5KvL0ONYoSHKuOldxmnwN01tZBh8&limit=25&offset=25&__after_id=1230238211"}}},{"id":"10151135833974101","from":{"name":"Natalie Thomann","id":"672934100"},"place":{"id":"107138119326733","name":"The Forge","location":{"street":"432 Forty First Street ","city":"Miami Beach","state":"FL","country":"United States","zip":"33140","latitude":25.813585492728,"longitude":-80.12841990652}},"application":{"name":"Facebook for iPhone","namespace":"fbiphone","id":"6628568379"},"created_time":"2012-08-24T01:04:25+0000","likes":{"data":[{"id":"100000614072469","name":"Alan Fiedel"}],"paging":{"next":"https:\/\/graph.facebook.com\/10151135833974101\/likes?access_token=AAACEdEose0cBAMYosNuQgnCMBhgO4meNR3qH1cjXNhenSu6GRD6HiTa20OCYdbn297Lf2pZALjodgovOYrfZB0K5KvL0ONYoSHKuOldxmnwN01tZBh8&limit=25&offset=25&__after_id=100000614072469"}}},{"id":"1923317330139","from":{"name":"Laura Maenak","id":"1458270099"},"place":{"id":"120503506686","name":"Perricone's Marketplace & Cafe","location":{"street":"15 SE 10th Street","city":"Miami","state":"FL","country":"United States","zip":"33131","latitude":25.764722043477,"longitude":-80.192860219851}},"application":{"name":"Facebook for iPhone","namespace":"fbiphone","id":"6628568379"},"created_time":"2011-08-31T16:29:57+0000","tags":{"data":[{"id":"100000297962399","name":"Julia Kogutiak"},{"id":"883905004","name":"Julian Uribe"},{"id":"672934100","name":"Natalie Thomann"}],"paging":{"next":"https:\/\/graph.facebook.com\/1923317330139\/tags?access_token=AAACEdEose0cBAMYosNuQgnCMBhgO4meNR3qH1cjXNhenSu6GRD6HiTa20OCYdbn297Lf2pZALjodgovOYrfZB0K5KvL0ONYoSHKuOldxmnwN01tZBh8&limit=25&offset=25&__after_id=672934100"}}}],"paging":{"previous":"https:\/\/graph.facebook.com\/672934100\/checkins?access_token=AAACEdEose0cBAMYosNuQgnCMBhgO4meNR3qH1cjXNhenSu6GRD6HiTa20OCYdbn297Lf2pZALjodgovOYrfZB0K5KvL0ONYoSHKuOldxmnwN01tZBh8&limit=25&since=1362441519&__paging_token=10151543022809101&__previous=1","next":"https:\/\/graph.facebook.com\/672934100\/checkins?access_token=AAACEdEose0cBAMYosNuQgnCMBhgO4meNR3qH1cjXNhenSu6GRD6HiTa20OCYdbn297Lf2pZALjodgovOYrfZB0K5KvL0ONYoSHKuOldxmnwN01tZBh8&limit=25&until=1314808197&__paging_token=1923317330139"}}